City,Lat,Lng,Max_Temp,Humidity,Cloudiness,Wind_Speed,Country,Date
baykit,61.67,96.37,72.27,50,8,5.48,RU,1624151612
walvis bay,-22.9575,14.5053,65.17,52,3,3.85,NA,1624151612
talnakh,69.4865,88.3972,48.63,90,100,2.86,RU,1624151613
qaanaaq,77.484,-69.3632,38.53,58,8,2.55,GL,1624151613
longyearbyen,78.2186,15.6401,40.84,75,75,20.71,SJ,1624151613
hithadhoo,-0.6,73.0833,83.62,68,83,13.11,MV,1624151614
rikitea,-23.1203,-134.9692,75.33,76,0,18.16,PF,1624151614
ambilobe,-13.2,49.05,67.03,82,51,3.96,MG,1624151614
yerbogachen,61.2767,108.0108,65.21,68,98,3.83,RU,1624151615
busselton,-33.65,115.3333,55.09,85,24,10.89,AU,1624151615
caravelas,-17.7125,-39.2481,72.66,70,100,9.17,BR,1624151615
torbay,47.6666,-52.7314,58.87,87,100,8.19,CA,1624151616
riyadh,24.6877,46.7219,78.94,18,0,5.75,SA,1624151364
jutai,-5.1833,-68.9,72.3,96,33,2.62,BR,1624151616
georgetown,5.4112,100.3354,79.9,85,20,3.44,MY,1624151616
koumac,-20.5667,164.2833,76.26,63,60,8.61,NC,1624151616
bandarbeyla,9.4942,50.8122,79.3,69,21,27.4,SO,1624151617
vao,-22.6667,167.4833,72.72,76,79,19.84,NC,1624151617
barrow,71.2906,-156.7887,38.77,80,97,10.47,US,1624151617
kyzyl-suu,42.3414,78.0056,57.18,59,100,3.36,KG,1624151618
ilulissat,69.2167,-51.1,44.62,65,84,6.91,GL,1624151618
kahului,20.8947,-156.47,79.84,79,43,8.99,US,1624151137
monduli,-3.3,36.45,54.46,91,72,6.69,TZ,1624151618
port elizabeth,-33.918,25.5701,63.09,37,63,8.52,ZA,1624151619
tura,25.5198,90.2201,72.27,97,100,6.22,IN,1624151619
wanxian,30.8039,108.3897,68.65,94,100,2.57,CN,1624151619
lasa,46.6166,10.7002,67.03,89,13,3.27,IT,1624151620
punta arenas,-53.15,-70.9167,39.31,81,0,18.41,CL,1624151620
asau,46.4333,26.4,61.39,100,79,5.19,RO,1624151620
ushuaia,-54.8,-68.3,38.86,81,20,19.57,AR,1624151492
mount gambier,-37.8333,140.7667,52.9,63,86,2.93,AU,1624151621
alice springs,-23.7,133.8833,56.75,54,6,12.66,AU,1624151381
new norfolk,-42.7826,147.0587,47.91,72,10,2.33,AU,1624151621
jamestown,42.097,-79.2353,64.29,93,100,5.99,US,1624151622
norfolk,42.1668,-71.2495,80.29,77,100,11.5,US,1624151622
norman wells,65.282,-126.8329,70.3,28,10,11.3,CA,1624151622
belyy yar,53.6039,91.3903,67.89,68,0,6.71,RU,1624151623
yellowknife,62.456,-114.3525,57.56,41,9,8.99,CA,1624151623
aykhal,66.0,111.5,73.8,39,95,12.26,RU,1624151623
itigi,-5.7,34.4833,58.53,73,27,8.81,TZ,1624151624
bluff,-46.6,168.3333,49.05,84,25,11.05,NZ,1624151624
pevek,69.7008,170.3133,38.93,88,20,2.39,RU,1624151624
japura,-0.3167,102.35,77.67,81,97,2.08,ID,1624151624
san patricio,28.017,-97.5169,87.67,67,67,12.44,US,1624151625
maryville,35.7565,-83.9705,77.81,79,100,1.01,US,1624151393
aswan,24.0934,32.907,81.19,18,0,9.8,EG,1624151625
mount isa,-20.7333,139.5,64.17,34,5,13.8,AU,1624151625
cidreira,-30.1811,-50.2056,59.09,95,100,12.91,BR,1624151626
upernavik,72.7868,-56.1549,36.97,72,40,9.28,GL,1624151436
castro,-24.7911,-50.0119,54.82,96,96,6.22,BR,1624151626
mar del plata,-38.0023,-57.5575,43.88,65,0,5.01,AR,1624151626
hermanus,-34.4187,19.2345,67.89,45,46,8.16,ZA,1624151627
mataura,-46.1927,168.8643,49.53,82,34,3.83,NZ,1624151627
mbandaka,0.0487,18.2603,71.17,86,86,0.58,CD,1624151627
chokurdakh,70.6333,147.9167,67.71,34,2,10.78,RU,1624151628
khatanga,71.9667,102.5,77.47,39,6,9.04,RU,1624151628
buala,-8.145,159.5921,85.1,64,11,4.14,SB,1624151628
bambous virieux,-20.3428,57.7575,71.76,65,56,19.66,MU,1624151629
pedernales,18.0384,-71.744,82.53,67,100,10.02,DO,1624151629
dongsheng,39.8161,109.9776,70.52,18,100,5.28,CN,1624151629
aklavik,68.2191,-135.0107,78.8,25,52,10.04,CA,1624151630
ko samui,9.5357,99.9357,83.01,76,94,12.93,TH,1624151578
port alfred,-33.5906,26.891,66.15,41,6,10.29,ZA,1624151630
kruisfontein,-34.0033,24.7314,60.49,30,41,9.64,ZA,1624151630
eresos,39.1667,25.9333,70.83,80,11,7.9,GR,1624151631
ponta do sol,32.6667,-17.1,66.7,75,8,5.1,PT,1624151631
vaini,-21.2,-175.2,78.96,83,20,9.22,TO,1624151631
hobart,-42.8794,147.3294,48.25,82,75,1.99,AU,1624151587
ambah,26.7075,78.2261,86.22,56,12,4.36,IN,1624151632
paraiba do sul,-22.1619,-43.2928,54.68,97,13,4.83,BR,1624151632
albany,42.6001,-73.9662,76.64,66,100,6.96,US,1624151488
igarka,67.4667,86.5833,44.51,84,100,4.92,RU,1624151632
tiksi,71.6872,128.8694,55.72,60,34,2.19,RU,1624151632
eregli,37.5133,34.0467,62.89,46,0,1.21,TR,1624151633
valparaiso,-33.0393,-71.6273,55.47,75,0,6.91,CL,1624151375
meulaboh,4.1363,96.1285,77.49,86,97,4.0,ID,1624151633
guerrero negro,27.9769,-114.0611,67.64,74,0,20.22,MX,1624151634
praia,14.9215,-23.5087,72.14,78,20,11.5,CV,1624151634
labuhan,-6.8844,112.2051,80.24,78,31,6.6,ID,1624151634
flin flon,54.7682,-101.865,59.63,63,100,9.01,CA,1624151635
ciudad bolivar,8.1222,-63.5497,80.83,72,89,10.11,VE,1624151635
butaritari,3.0707,172.7902,82.06,70,11,1.72,KI,1624151635
iqaluit,63.7506,-68.5145,36.7,74,100,3.0,CA,1624151636
reconquista,-29.15,-59.65,48.06,82,9,4.25,AR,1624151636
victoria,22.2855,114.1577,90.32,80,100,1.99,HK,1624151497
tessalit,20.1986,1.0114,90.45,7,0,8.63,ML,1624151636
lakki marwat,32.6079,70.9114,92.17,27,0,2.06,PK,1624151636
burgersdorp,-30.9977,26.3286,43.66,76,0,3.8,ZA,1624151637
avarua,-21.2078,-159.775,77.05,69,40,13.8,CK,1624151637
klyuchi,52.2667,79.1667,50.22,66,100,6.87,RU,1624151638
wonthaggi,-38.6044,145.5913,55.71,71,6,4.21,AU,1624151639
kalat,29.0225,66.5916,65.53,36,0,6.71,PK,1624151639
constitucion,-35.3333,-72.4167,51.6,73,98,5.32,CL,1624151640
hamilton,39.1834,-84.5333,79.2,84,100,6.91,US,1624151561
preobrazheniye,42.9019,133.9064,52.5,91,100,11.43,RU,1624151640
abensberg,48.8167,11.85,70.05,83,96,3.67,DE,1624151641
honiara,-9.4333,159.95,85.39,65,77,3.49,SB,1624151522
dikson,73.5069,80.5464,32.92,79,97,7.92,RU,1624151641
kendari,-3.945,122.4989,78.76,86,100,1.14,ID,1624151641
amahai,-3.3333,128.9167,78.31,87,100,3.31,ID,1624151642
kapaa,22.0752,-159.319,84.18,75,11,4.0,US,1624151642
manggar,-2.8833,108.2667,82.0,73,91,3.71,ID,1624151642
oriximina,-1.7656,-55.8661,76.71,83,10,3.33,BR,1624151643
kidal,18.4411,1.4078,91.89,26,18,8.59,ML,1624151643
east london,-33.0153,27.9116,64.92,39,5,5.82,ZA,1624151643
yumen,40.2833,97.2,74.95,22,100,10.42,CN,1624151644
bengkulu,-3.8004,102.2655,77.99,76,87,4.27,ID,1624151644
port lincoln,-34.7333,135.8667,54.73,54,1,6.15,AU,1624151644
meiktila,20.8667,95.8667,78.17,77,58,17.54,MM,1624151645
cabo san lucas,22.8909,-109.9124,98.51,72,5,17.27,MX,1624151430
smithers,54.7804,-127.1743,73.4,28,3,2.89,CA,1624151553
tuni,17.35,82.55,81.75,78,100,10.22,IN,1624151646
souris,49.6172,-100.2612,66.06,87,100,6.62,CA,1624151646
koror,7.3398,134.4733,84.52,74,75,8.05,PW,1624151647
dingle,10.9995,122.6711,83.66,74,100,9.08,PH,1624151647
iquique,-20.2208,-70.1431,60.84,83,95,2.46,CL,1624151647
sobolevo,54.4299,31.8996,62.91,94,0,5.17,RU,1624151647
katsuura,35.1333,140.3,78.19,94,100,16.55,JP,1624151648
thompson,55.7435,-97.8558,51.96,87,90,12.66,CA,1624151648
naryan-mar,67.6713,53.087,42.24,73,100,14.43,RU,1624151648
ancud,-41.8697,-73.8203,47.23,84,100,6.15,CL,1624151649
port hardy,50.6996,-127.4199,56.05,89,100,3.65,CA,1624151649
lata,40.1629,-8.3327,58.05,91,91,4.5,PT,1624151649
pedro carbo,-1.8333,-80.2333,78.28,83,75,3.44,EC,1624151650
farafangana,-22.8167,47.8333,67.6,85,55,4.79,MG,1624151650
la reforma,25.0833,-108.05,91.15,62,78,9.22,MX,1624151650
tuktoyaktuk,69.4541,-133.0374,59.4,40,16,6.46,CA,1624151651
carnarvon,-24.8667,113.6333,57.27,41,1,4.61,AU,1624151651
cape town,-33.9258,18.4232,68.11,44,5,1.99,ZA,1624151651
husavik,66.0449,-17.3389,41.88,82,97,5.91,IS,1624151651
gao,16.6362,1.637,91.92,27,100,6.91,ML,1624151652
nova prata,-28.7839,-51.61,52.65,100,100,1.48,BR,1624151652
nakhon phanom,17.3333,104.4167,84.79,61,23,4.97,TH,1624151652
dembi dolo,8.5333,34.8,56.61,97,100,4.29,ET,1624151653
taldan,53.6667,124.8,66.92,67,83,4.65,RU,1624151653
puerto ayora,-0.7393,-90.3518,73.54,89,66,7.0,EC,1624151653
aktau,43.65,51.2,75.78,30,0,19.86,KZ,1624151654
touros,-5.1989,-35.4608,72.5,83,2,12.55,BR,1624151654
san jeronimo,-11.9472,-75.2829,47.89,80,30,3.4,PE,1624151654
la concordia,13.1953,-86.1667,69.98,91,100,3.62,NI,1624151655
sao sebastiao,-23.76,-45.4097,67.86,90,100,2.13,BR,1624151655
ambanja,-13.6833,48.45,69.26,86,18,3.8,MG,1624151656
zhanaozen,43.3,52.8,72.97,22,0,17.81,KZ,1624151656
sal rei,16.1833,-22.9167,70.36,85,8,17.31,CV,1624151656
kautokeino,69.0125,23.0412,46.74,79,100,8.1,NO,1624151656
saint-francois,46.4154,3.9054,65.17,100,100,4.61,FR,1624151657
cherskiy,68.75,161.3,54.91,59,98,13.06,RU,1624151657
kaeo,-35.1,173.7833,64.33,82,23,15.41,NZ,1624151657
bremervorde,53.4833,9.1333,67.39,97,99,8.95,DE,1624151658
arraial do cabo,-22.9661,-42.0278,71.08,79,7,29.97,BR,1624151658
hilo,19.7297,-155.09,84.27,81,37,4.0,US,1624151658
airai,-8.9266,125.4092,66.94,70,74,4.41,TL,1624151659
codrington,-38.2667,141.9667,51.22,82,100,4.18,AU,1624151659
sesheke,-17.4759,24.2968,52.77,61,5,6.67,ZM,1624151659
klaksvik,62.2266,-6.589,47.32,88,100,13.98,FO,1624151660
saint-augustin,51.226,-58.6502,52.93,81,100,7.16,CA,1624151660
genhe,50.7833,121.5167,57.11,82,100,9.24,CN,1624151660
wajima,37.4,136.9,65.93,82,100,9.6,JP,1624151661
kota kinabalu,5.9749,116.0724,82.38,78,20,2.3,MY,1624151661
komsomolskiy,40.4272,71.7189,69.22,38,6,1.25,UZ,1624151661
akhaldaba,41.654,42.1516,57.76,59,3,6.06,GE,1624151662
san andres,12.5847,-81.7006,84.22,84,40,12.66,CO,1624151662
fairbanks,64.8378,-147.7164,71.02,64,40,3.0,US,1624151444
makakilo city,21.3469,-158.0858,80.92,73,90,5.75,US,1624151662
north bend,43.4065,-124.2243,87.94,77,5,3.0,US,1624151613
beni,0.5,29.4667,61.09,94,99,2.26,CD,1624151663
hibbing,47.4272,-92.9377,64.44,61,13,4.32,US,1624151663
samarai,-10.6167,150.6667,80.06,73,100,15.7,PG,1624151663
nishihara,26.1842,127.7558,83.86,84,75,9.22,JP,1624151664
beringovskiy,63.05,179.3167,42.15,88,61,8.75,RU,1624151664
goderich,43.7501,-81.7165,65.91,75,0,5.73,CA,1624151487
saint-alexandre,44.2278,4.6214,72.27,79,100,2.24,FR,1624151665
nikolskoye,59.7035,30.7861,69.69,77,0,5.28,RU,1624151665
progreso,21.2833,-89.6667,80.15,86,100,8.68,MX,1624151665
tasiilaq,65.6145,-37.6368,39.36,66,42,5.28,GL,1624151665
imeni poliny osipenko,52.4201,136.4853,68.18,47,93,1.01,RU,1624151666
faanui,-16.4833,-151.75,80.8,76,18,13.82,PF,1624151666
lompoc,34.6391,-120.4579,87.94,84,90,5.01,US,1624151666
bam,29.106,58.357,79.32,10,0,18.63,IR,1624151667
nakusp,50.2499,-117.8023,71.76,52,57,3.4,CA,1624151667
natal,-5.795,-35.2094,72.25,94,40,3.44,BR,1624151373
montepuez,-13.1256,38.9997,61.03,84,74,8.59,MZ,1624151667
pisco,-13.7,-76.2167,64.45,82,90,14.97,PE,1624151668
acapulco,16.8634,-99.8901,76.82,100,90,4.61,MX,1624151668
pacific grove,36.6177,-121.9166,86.45,84,33,5.99,US,1624151649
evensk,61.95,159.2333,51.73,68,84,5.95,RU,1624151668
hasaki,35.7333,140.8333,71.89,96,100,16.04,JP,1624151669
krasnyy kholm,58.0607,37.1203,60.75,90,7,6.35,RU,1624151669
cardinal,44.7834,-75.3826,74.21,73,1,0.0,CA,1624151669
vila velha,-20.3297,-40.2925,66.15,100,75,3.44,BR,1624151670
hambantota,6.1241,81.1185,79.12,79,62,12.82,LK,1624151670
bardsir,29.9227,56.5743,61.88,16,0,6.04,IR,1624151670
bredasdorp,-34.5322,20.0403,58.68,38,34,6.38,ZA,1624151671
lake saint louis,38.7976,-90.7857,79.29,61,99,5.53,US,1624151549
waipawa,-41.4122,175.5153,51.03,96,100,16.53,NZ,1624151671
prachin buri,14.0833,101.6667,82.87,73,18,4.07,TH,1624151671
baruun-urt,46.6806,113.2792,61.77,54,10,11.61,MN,1624151672
saskylakh,71.9167,114.0833,83.25,27,29,13.22,RU,1624151672
lira,2.235,32.9097,63.05,94,99,3.13,UG,1624151672
kavieng,-2.5744,150.7967,82.15,74,32,4.12,PG,1624151672
campbell river,50.0163,-125.2446,65.59,66,4,3.94,CA,1624151673
noumea,-22.2763,166.4572,77.0,99,100,15.41,NC,1624151673
lima,-12.0432,-77.0282,63.9,85,90,8.05,PE,1624151658
minab,27.1467,57.0801,90.75,34,0,7.61,IR,1624151673
jose de freitas,-4.7564,-42.5756,76.15,50,100,4.45,BR,1624151674
boralday,43.3578,76.8594,55.26,71,75,6.71,KZ,1624151674
opuwo,-18.0607,13.84,58.32,35,0,7.56,NA,1624151674
iwanai,42.9744,140.5089,63.03,78,98,4.68,JP,1624151675
viseu,40.661,-7.9097,54.86,95,100,4.97,PT,1624151675
sao joao da barra,-21.6403,-41.0511,71.13,75,8,19.42,BR,1624151675
jupiter,26.9342,-80.0942,83.07,85,100,5.99,US,1624151676
lebu,-37.6167,-73.65,48.09,78,92,4.94,CL,1624151676
huarmey,-10.0681,-78.1522,66.6,86,45,9.8,PE,1624151676
haverfordwest,51.8017,-4.9691,60.55,96,98,8.25,GB,1624151677
savannakhet,16.566,104.751,83.62,69,82,11.12,LA,1624151677
severo-kurilsk,50.6789,156.125,44.6,85,100,3.83,RU,1624151677
korla,41.7597,86.1469,76.08,26,0,6.4,CN,1624151677
cairns,-16.9167,145.7667,76.95,56,100,10.36,AU,1624151678
bida,9.0833,6.0167,75.15,91,100,1.66,NG,1624151678
turkistan,43.0,68.0,65.05,23,7,20.51,KZ,1624151678
salmon creek,45.7107,-122.649,84.09,51,0,1.99,US,1624151383
bethel,41.3712,-73.414,71.85,93,100,1.99,US,1624151679
birin,26.8865,88.0718,63.55,98,99,4.23,NP,1624151679
luang prabang,19.8856,102.1347,82.96,66,11,2.98,LA,1624151679
mgandu,-5.95,34.1333,54.75,84,41,8.41,TZ,1624151680
shangzhi,45.2167,127.9667,63.81,78,69,9.89,CN,1624151680
kununurra,-15.7667,128.7333,71.58,24,7,12.66,AU,1624151428
bristol,41.8334,-71.1662,78.49,78,100,1.01,US,1624151622
jiuquan,39.7432,98.5174,73.94,26,100,5.12,CN,1624151681
challans,46.8436,-1.8749,60.71,79,100,7.56,FR,1624151681
basarabi,44.0053,23.0055,63.48,94,100,4.41,RO,1624151681
bawku,11.0616,-0.2417,83.32,57,100,2.8,GH,1624151682
bagdarin,54.4333,113.6,53.01,93,100,1.68,RU,1624151682
gat,31.61,34.7642,68.68,78,0,1.97,IL,1624151682
kavaratti,10.5669,72.642,82.85,75,100,21.25,IN,1624151682
belmonte,-15.8631,-38.8828,70.3,83,79,10.8,BR,1624151683
bilma,18.6853,12.9164,89.62,16,14,3.67,NE,1624151683
luderitz,-26.6481,15.1594,69.8,33,5,8.21,NA,1624151683
le marin,14.4721,-60.8697,81.72,89,75,8.05,MQ,1624151684
sao joao do paraiso,-15.3136,-42.0144,59.94,96,90,8.1,BR,1624151684
atuona,-9.8,-139.0333,79.74,76,16,21.61,PF,1624151684
mujiayingzi,42.1167,118.7833,73.38,32,4,18.72,CN,1624151684
kopavogur,64.1123,-21.913,42.66,81,50,8.01,IS,1624151685
ribeira grande,38.5167,-28.7,67.98,93,80,9.6,PT,1624151685
nago,26.5881,127.9761,84.63,86,100,4.5,JP,1624151685
saint-philippe,-21.3585,55.7679,68.22,74,92,12.5,RE,1624151686
geraldton,-28.7667,114.6,55.13,71,70,13.8,AU,1624151686
chernyshevskiy,63.0128,112.4714,73.87,46,86,3.53,RU,1624151686
bonthe,7.5264,-12.505,78.12,86,100,7.78,SL,1624151687
zelenoborsk,61.4669,64.0333,43.84,69,100,19.1,RU,1624151687
bonavista,48.6499,-53.1147,51.3,85,45,13.44,CA,1624151687
ocean city,39.2776,-74.5746,75.97,90,99,12.53,US,1624151401
sao jose da coroa grande,-8.8978,-35.1478,75.07,87,84,9.69,BR,1624151688
kaitangata,-46.2817,169.8464,50.11,88,100,9.08,NZ,1624151688
shellbrook,53.2168,-106.4011,66.4,54,4,5.68,CA,1624151688
pinas,-3.6667,-79.65,65.75,93,54,2.42,EC,1624151688
te anau,-45.4167,167.7167,43.34,66,6,2.17,NZ,1624151689
provideniya,64.3833,-173.3,58.51,46,20,4.47,RU,1624151689
bathsheba,13.2167,-59.5167,81.21,74,40,13.8,BB,1624151689
mahebourg,-20.4081,57.7,71.74,64,43,19.73,MU,1624151690
manado,1.487,124.8455,86.77,70,40,1.14,ID,1624151690
leh,34.1667,77.5833,50.38,53,30,4.79,IN,1624151690
sanghar,26.0466,68.9481,82.47,66,90,19.86,PK,1624151691
krasnoshchekovo,51.6708,82.7289,47.32,95,100,6.17,RU,1624151691
halifax,44.6453,-63.5724,62.42,91,100,8.01,CA,1624151496
quelimane,-17.8786,36.8883,65.79,95,91,3.11,MZ,1624151691
nanchang,28.6833,115.8833,73.44,91,100,2.48,CN,1624151692
karasjok,69.4719,25.5112,48.31,75,100,9.89,NO,1624151692
marawi,7.9986,124.2928,75.65,68,100,1.74,PH,1624151693
cayenne,4.9333,-52.3333,82.09,82,75,3.0,GF,1624151693
mayor pablo lagerenza,-19.9309,-60.7718,53.17,67,100,1.45,PY,1624151693
spassk-ryazanskiy,54.4072,40.3806,59.77,89,0,2.75,RU,1624151694
marion,39.7684,-86.1555,79.57,77,7,7.54,US,1624151459
westport,41.1415,-73.3579,72.09,94,100,13.0,US,1624151694
sola,-13.8833,167.55,79.95,79,100,10.63,VU,1624151694
laguna,38.421,-121.4238,108.43,18,0,5.99,US,1624151566
luis correia,-2.8792,-41.6669,77.04,88,22,8.52,BR,1624151695
clyde river,70.4692,-68.5914,34.03,100,90,3.44,CA,1624151695
lagoa vermelha,-28.2086,-51.5258,50.81,98,100,4.94,BR,1624151696
namatanai,-3.6667,152.4333,84.47,65,72,3.29,PG,1624151696
lamu,-2.2717,40.902,76.21,80,100,17.63,KE,1624151696
itarema,-2.9248,-39.9167,76.95,84,9,11.65,BR,1624151697
moranbah,-22.0016,148.0466,63.57,38,0,10.78,AU,1624151697
estelle,29.8458,-90.1067,84.99,73,1,6.91,US,1624151697
eyl,7.9803,49.8164,78.71,64,100,25.81,SO,1624151698
ulaangom,49.9811,92.0667,72.45,33,99,1.72,MN,1624151698
alofi,-19.0595,-169.9187,75.99,72,57,15.39,NU,1624151698
tuim,54.3417,89.9261,60.15,91,100,1.3,RU,1624151698
berlevag,70.8578,29.0864,44.94,84,92,4.41,NO,1624151699
simbahan,6.3032,120.5836,82.31,73,100,3.31,PH,1624151699
lagoa,39.05,-27.9833,66.51,93,100,14.99,PT,1624151699
tazovskiy,67.4667,78.7,44.08,65,8,7.47,RU,1624151700
souillac,-20.5167,57.5167,71.01,66,7,18.95,MU,1624151700
shalinskoye,55.7228,93.7594,69.04,69,78,3.47,RU,1624151700
reading,51.4562,-0.9711,57.31,94,100,3.0,GB,1624151436
mareeba,-17.0,145.4333,72.32,63,100,3.78,AU,1624151701
olinda,-8.0089,-34.8553,69.53,88,75,6.91,BR,1624151641
ilinskiy,55.619,38.1182,64.98,88,0,2.24,RU,1624151701
nome,64.5011,-165.4064,68.16,46,34,10.83,US,1624151703
ozernovskiy,51.5,156.5167,43.32,92,83,6.06,RU,1624151703
kieta,-6.2167,155.6333,84.15,65,3,3.44,PG,1624151703
humberto de campos,-2.5983,-43.4611,74.3,92,33,4.56,BR,1624151704
liuhe,42.2401,125.7172,65.19,76,5,5.3,CN,1624151704
lampazos de naranjo,27.0167,-100.5167,92.19,37,99,13.33,MX,1624151704
sitka,57.0531,-135.33,64.13,56,20,4.56,US,1624151578
sorland,67.667,12.6934,47.19,82,100,13.91,NO,1624151705
coquimbo,-29.9533,-71.3436,55.13,94,90,8.05,CL,1624151460
saint george,37.1041,-113.5841,108.63,11,1,1.01,US,1624151705
boende,-0.2167,20.8667,72.27,83,26,2.01,CD,1624151706
awjilah,29.1081,21.2869,73.02,48,0,12.19,LY,1624151706
manokwari,-0.8667,134.0833,81.86,69,14,2.46,ID,1624151706
kamenka,51.3223,42.7678,56.53,79,0,7.0,RU,1624151706
kalispell,48.1958,-114.3129,73.44,41,90,3.0,US,1624151707
the valley,18.217,-63.0578,82.09,84,5,21.18,AI,1624151707
puerto escondido,15.85,-97.0667,81.64,82,93,4.65,MX,1624151707
ust-tsilma,65.441,52.1498,41.61,71,8,7.9,RU,1624151708
humble,29.9988,-95.2622,89.87,66,100,3.0,US,1624151708
ippy,6.2679,21.2247,70.59,88,100,2.8,CF,1624151709
la oroya,-11.5189,-75.8994,42.48,90,20,4.25,PE,1624151709
marinette,45.1,-87.6307,70.3,77,74,5.59,US,1624151709
sindor,62.8629,51.8905,47.98,66,23,7.11,RU,1624151710
agadez,19.75,10.25,87.58,10,99,8.93,NE,1624151710
kloulklubed,7.0419,134.2556,84.7,73,33,7.94,PW,1624151710
vic,41.9301,2.2549,71.65,85,100,5.32,ES,1624151711
leningradskiy,69.3833,178.4167,45.72,78,47,6.15,RU,1624151711
portland,45.5234,-122.6762,84.97,47,0,1.99,US,1624151231
araouane,18.9048,-3.5265,91.69,28,17,11.52,ML,1624151712
flinders,-34.5833,150.8552,59.81,78,75,10.0,AU,1624151712
warmbad,-28.45,18.7333,62.83,34,4,13.15,NA,1624151712
daura,11.5538,11.4085,80.96,56,100,9.33,NG,1624151712
morehead,37.2711,-87.1764,80.83,81,100,10.78,US,1624151713
beian,63.6559,9.5683,54.55,93,40,2.3,NO,1624151713
grand gaube,-20.0064,57.6608,72.0,65,7,20.24,MU,1624151713
anloga,5.7947,0.8973,80.08,81,100,12.59,GH,1624151714
singleton,-32.5667,151.1833,58.69,79,100,6.69,AU,1624151537
mathathane,-22.2687,28.7495,57.31,72,99,4.97,BW,1624151714
kodiak,57.79,-152.4072,47.84,98,100,8.84,US,1624151714
gavle,60.6745,17.1417,49.95,97,80,3.0,SE,1624151715
el rusio,14.4667,-86.3667,75.54,72,97,2.39,HN,1624151715
sayyan,15.1718,44.3244,62.91,20,7,3.8,YE,1624151715
beidao,34.5686,105.8933,68.2,44,100,1.1,CN,1624151716
berezovyy,51.6667,135.7,71.85,43,90,3.49,RU,1624151716
tiarei,-17.5333,-149.3333,82.42,82,99,13.85,PF,1624151716
segezha,63.7415,34.3222,58.8,64,99,7.25,RU,1624151717
biak,-0.9131,122.8766,81.39,68,100,4.99,ID,1624151717
monroe,43.1501,-77.6831,68.92,87,96,3.0,US,1624151621
saldanha,-33.0117,17.9442,64.81,50,0,9.01,ZA,1624151469
jackson,42.4165,-122.8345,93.15,30,1,12.66,US,1624151717
cap malheureux,-19.9842,57.6142,72.09,65,6,18.95,MU,1624151718
esperance,-33.8667,121.9,55.31,55,48,16.04,AU,1624151466
anse-bertrand,16.4721,-61.5078,78.62,84,55,18.37,GP,1624151718
sakakah,29.9697,40.2064,79.57,20,0,6.38,SA,1624151718
traverse city,44.7631,-85.6206,68.74,59,20,6.91,US,1624151719
hobyo,5.3505,48.5268,76.44,81,12,23.76,SO,1624151719
manama,26.2154,50.5832,93.38,48,0,11.5,BH,1624151719
saint anthony,45.0205,-93.218,78.94,40,1,1.99,US,1624151720
padang,-0.9492,100.3543,79.25,73,100,2.89,ID,1624151720
khasan,42.4308,130.6434,56.12,90,100,11.97,RU,1624151720
havoysund,70.9963,24.6622,47.28,90,100,2.1,NO,1624151720
jerome,42.7241,-114.5186,90.88,21,1,19.57,US,1624151721
nanortalik,60.1432,-45.2371,41.72,81,100,10.11,GL,1624151721
bac lieu,9.285,105.7244,84.33,72,59,12.24,VN,1624151721
tivaouane,14.9515,-16.8129,73.74,82,92,13.91,SN,1624151722
oktyabrskoye,43.0645,44.7417,59.14,94,0,2.24,RU,1624151722
zaragoza,41.6561,-0.8773,70.9,77,40,1.01,ES,1624151722
pak phanang,8.3511,100.202,81.48,74,100,5.17,TH,1624151723
ostersund,63.1792,14.6357,46.85,100,90,0.0,SE,1624151723
taltal,-25.4,-70.4833,60.24,72,100,3.44,CL,1624151723
ikom,5.9667,8.7063,72.91,99,97,1.07,NG,1624151724
atar,20.5169,-13.0499,82.22,17,0,10.33,MR,1624151724
safaga,26.7292,33.9365,82.15,38,0,16.42,EG,1624151724
san carlos de bariloche,-41.1456,-71.3082,28.15,80,0,4.61,AR,1624151724
kingaroy,-26.5333,151.8333,66.06,59,0,7.58,AU,1624151725
birao,10.2849,22.7882,74.16,74,100,3.58,CF,1624151725
yatou,37.15,122.3833,79.93,44,88,11.32,CN,1624151725
tilichiki,60.4667,166.1,48.88,62,100,2.86,RU,1624151726
grindavik,63.8424,-22.4338,42.91,75,75,17.27,IS,1624151726
qarayeri,40.7886,46.3066,72.48,60,40,4.61,AZ,1624151726
okato,-39.2,173.8833,54.43,96,100,5.86,NZ,1624151726
botou,38.0667,116.5667,87.69,19,81,8.37,CN,1624151727
aviles,43.5547,-5.9248,62.73,90,0,1.01,ES,1624151727
ceatalchioi,45.2886,28.7937,64.98,92,84,8.84,RO,1624151727
suez,29.9737,32.5263,67.51,65,0,4.99,EG,1624151728
shahreza,32.0339,51.8794,67.91,15,0,3.51,IR,1624151728
san quintin,30.4833,-115.95,66.88,78,4,14.74,MX,1624151728
santa maria del oro,25.9333,-105.3667,79.5,32,100,18.61,MX,1624151728
tautira,-17.7333,-149.15,82.42,82,100,16.44,PF,1624151729
najran,17.4924,44.1277,75.85,15,24,5.48,SA,1624151729
bilgoraj,50.5411,22.722,62.37,94,1,5.12,PL,1624151729
camacha,33.0833,-16.3333,63.82,68,20,12.66,PT,1624151730
road town,18.4167,-64.6167,81.19,83,100,20.49,VG,1624151720
mehamn,71.0357,27.8492,44.31,85,100,4.72,NO,1624151730
sabha,27.0377,14.4283,83.34,19,0,10.42,LY,1624151730
fortuna,40.5982,-124.1573,102.47,68,20,9.22,US,1624151731
barao de melgaco,-16.1944,-55.9675,72.12,60,6,7.99,BR,1624151731
pueblo nuevo,23.3833,-105.3833,60.1,83,100,2.75,MX,1624151731
launceston,-41.45,147.1667,48.15,92,26,1.99,AU,1624151732
krasnyy chikoy,50.3643,108.7512,64.96,51,19,1.52,RU,1624151732
mogzon,51.7435,111.9606,57.02,74,88,5.53,RU,1624151732
san jose,37.3394,-121.895,97.7,48,1,1.99,US,1624151481
saryg-sep,51.5,95.6,67.89,48,88,3.27,RU,1624151733
bambanglipuro,-7.95,110.2833,62.6,79,97,0.69,ID,1624151733
bosaso,11.2842,49.1816,90.45,41,12,23.71,SO,1624151733
balabac,7.9868,117.0645,85.23,68,100,11.56,PH,1624151734
vila franca do campo,37.7167,-25.4333,68.41,93,67,10.36,PT,1624151734
andenes,69.3143,16.1194,48.18,81,90,3.44,NO,1624151734
ballina,-28.8667,153.5667,66.38,70,100,16.91,AU,1624151735
bennettsville,34.6174,-79.6848,80.78,77,1,5.75,US,1624151735
davenda,53.5556,119.317,57.0,94,99,7.43,RU,1624151735
paredon,16.0333,-93.8667,81.82,77,68,2.24,MX,1624151736
cockburn town,21.4612,-71.1419,81.03,84,100,19.19,TC,1624151736
capoterra,39.1763,8.9718,78.21,69,0,3.44,IT,1624151737
nokaneng,-19.6667,22.2667,62.11,49,90,11.74,BW,1624151737
jintur,19.6167,76.7,75.49,78,12,13.87,IN,1624151737
huejuquilla el alto,22.6,-103.8667,61.27,87,100,3.85,MX,1624151737
chuy,-33.6971,-53.4616,55.09,95,99,9.08,UY,1624151738
ust-maya,60.4167,134.5333,80.47,37,48,0.92,RU,1624151738
omboue,-1.5746,9.2618,74.89,84,10,9.13,GA,1624151738
santo antonio do amparo,-20.9464,-44.9189,58.17,77,6,7.49,BR,1624151543
srednekolymsk,67.45,153.6833,62.4,32,81,7.9,RU,1624151739
hailey,43.5196,-114.3153,82.26,17,1,9.22,US,1624151739
virginia beach,36.8529,-75.978,87.03,65,100,1.01,US,1624151549
plettenberg bay,-34.0527,23.3716,64.31,39,6,6.91,ZA,1624151740
minot,48.2325,-101.2963,79.79,60,100,9.64,US,1624151612
adet,11.2644,37.4888,57.4,84,100,2.24,ET,1624151740
langxiang,46.95,128.8833,60.01,82,100,4.79,CN,1624151740
san mateo del mar,16.2,-95.0,83.88,74,96,10.78,MX,1624151741
buluang,13.3068,123.3425,85.57,74,100,8.05,PH,1624151741
planeta rica,8.4147,-75.5883,76.77,93,98,8.23,CO,1624151741
sandwick,60.0,-1.25,49.82,76,40,5.75,GB,1624151741
tolbazy,54.0241,55.8825,68.76,90,0,10.98,RU,1624151742
akyab,20.15,92.9,78.39,87,100,5.48,MM,1624151742
khorinsk,52.1657,109.7726,64.4,59,47,7.27,RU,1624151742
fuxin,42.0156,121.6589,76.39,38,6,12.62,CN,1624151743
trebisacce,39.8708,16.5312,75.34,60,7,7.67,IT,1624151743
anadyr,64.75,177.4833,45.1,75,20,17.9,RU,1624151743
bukachacha,52.9833,116.9167,54.95,93,100,3.74,RU,1624151744
kalmunai,7.4167,81.8167,81.16,75,99,2.46,LK,1624151744
hetauda,27.4284,85.0322,81.75,96,100,5.19,NP,1624151744
vanimo,-2.6741,141.3028,84.29,66,29,3.67,PG,1624151745
dzilam gonzalez,21.2833,-88.9333,83.23,65,100,8.97,MX,1624151745
serravalle pistoiese,43.9061,10.8327,72.55,79,55,2.59,IT,1624151745
duldurga,50.6761,113.5931,52.59,92,100,6.64,RU,1624151745
barranca,-10.75,-77.7667,65.3,85,43,8.84,PE,1624151746
camana,-16.6228,-72.7111,63.57,86,74,6.67,PE,1624151746
bubaque,11.2833,-15.8333,79.3,77,90,15.14,GW,1624151746
trairi,-3.2778,-39.2689,78.19,79,3,8.16,BR,1624151747
champerico,14.3,-91.9167,83.35,73,100,1.97,GT,1624151747
campos novos,-27.4017,-51.225,51.17,99,100,2.15,BR,1624151747
novo cruzeiro,-17.4681,-41.8753,60.33,95,100,3.98,BR,1624151748
balkhash,46.844,74.9804,54.21,50,0,13.42,KZ,1624151748
inverell,-29.7833,151.1167,65.66,61,6,5.99,AU,1624151748
kamloops,50.6665,-120.3192,65.57,66,90,5.01,CA,1624151749
tuatapere,-46.1333,167.6833,45.27,74,1,2.26,NZ,1624151749
banikoara,11.2985,2.4386,78.8,73,100,9.93,BJ,1624151750
mayumba,-3.432,10.6554,73.51,89,0,7.07,GA,1624151750
usogorsk,63.4106,48.6872,48.07,76,11,5.32,RU,1624151750
laela,-8.5667,32.05,49.15,91,0,4.36,TZ,1624151750
yar-sale,66.8333,70.8333,50.16,63,97,11.72,RU,1624151751
turukhansk,65.8167,87.9833,48.51,84,100,6.02,RU,1624151751
palana,59.1167,159.9667,47.43,65,100,15.64,RU,1624151752
whitehorse,60.7161,-135.0538,79.02,19,20,18.99,CA,1624151752
barra do garcas,-15.89,-52.2567,71.42,51,5,1.99,BR,1624151752
ronne,55.1009,14.7066,71.51,68,71,9.22,DK,1624151753
benghazi,32.1167,20.0667,72.7,82,0,9.37,LY,1624151753
staraya russa,57.9944,31.3608,61.59,87,0,6.2,RU,1624151753
dunedin,-45.8742,170.5036,51.8,92,100,11.99,NZ,1624151753
chifeng,42.2683,118.9636,75.38,30,6,19.28,CN,1624151754
lavrentiya,65.5833,-171.0,50.61,64,93,4.74,RU,1624151754
yinchuan,38.4681,106.2731,79.41,21,100,6.55,CN,1624151754
vostok,46.4856,135.8833,59.07,43,100,12.46,RU,1624151755
ipixuna,-1.7625,-48.8043,76.95,97,94,3.24,BR,1624151755
batemans bay,-35.7167,150.1833,61.92,60,13,12.68,AU,1624151755
naze,28.3667,129.4833,74.32,74,100,7.27,JP,1624151756
takoradi,4.8845,-1.7554,77.13,87,71,8.9,GH,1624151756
corinto,37.9407,22.9573,77.68,73,2,3.44,GR,1624151756
bejar,40.3864,-5.7634,53.74,89,100,6.02,ES,1624151757
kuntaur,13.6667,-14.8833,83.53,48,66,10.76,GM,1624151757
harihar,14.5167,75.8,72.7,88,100,11.36,IN,1624151757
malanje,-9.5402,16.341,55.83,37,0,4.99,AO,1624151758
yenangyaung,20.4667,94.8833,77.81,84,87,12.26,MM,1624151758
tongliao,43.6125,122.2653,71.28,51,20,11.5,CN,1624151758
mao,39.8885,4.2658,75.76,83,0,12.66,ES,1624151758
adrar,20.5022,-10.0711,82.08,18,0,14.29,MR,1624151759
rio claro,-22.4114,-47.5614,67.82,44,100,2.98,BR,1624151759
skelleftea,64.7507,20.9528,46.76,100,90,5.75,SE,1624151760
soyalo,16.9,-92.9167,72.5,91,85,1.83,MX,1624151760
rio grande,-32.035,-52.0986,57.88,95,93,13.76,BR,1624151760
san nicolas,18.1725,120.5953,84.11,74,75,9.22,PH,1624151760
kortkeros,61.8106,51.5806,53.6,73,2,5.23,RU,1624151761
borisoglebskiy,57.2586,39.1508,60.44,81,5,5.53,RU,1624151761
margate,51.3813,1.3862,58.71,97,94,1.99,GB,1624151762
platanos,37.6667,21.6167,72.7,73,0,3.29,GR,1624151762
ulladulla,-35.35,150.4667,61.68,69,96,14.9,AU,1624151762
lorengau,-2.0226,147.2712,84.4,68,38,4.99,PG,1624151762
haines junction,60.7522,-137.5108,69.75,28,6,6.91,CA,1624151763
majene,-3.5403,118.9707,81.28,75,92,5.75,ID,1624151763
narsaq,60.9167,-46.05,48.42,74,100,2.48,GL,1624151763
malaryta,51.7905,24.074,62.24,93,5,3.83,BY,1624151764
suoyarvi,62.0833,32.35,58.3,81,0,5.01,RU,1624151764
san miguel,13.4833,-88.1833,85.66,74,40,3.44,SV,1624151764
okhotsk,59.3833,143.3,57.09,65,100,16.2,RU,1624151765
jumla,29.2747,82.1838,61.23,95,100,0.65,NP,1624151765
taoudenni,22.6783,-3.9836,96.66,11,65,1.66,ML,1624151765
tuckahoe,37.5901,-77.5564,81.32,77,1,0.0,US,1624151749
morros,-9.4467,-46.3003,74.53,48,1,2.39,BR,1624151766
tabuk,17.4189,121.4443,86.54,55,98,1.77,PH,1624151766
zhezkazgan,47.8043,67.7144,59.36,30,100,8.01,KZ,1624151766
stebnyk,49.2942,23.5636,62.24,94,7,2.98,UA,1624151767
bilokurakyne,49.5341,38.7307,60.3,76,14,10.18,UA,1624151767
quatre cocos,-20.2078,57.7625,71.71,66,49,19.15,MU,1624151767
burnie,-41.0667,145.9167,51.67,71,10,4.05,AU,1624151767
nemuro,43.3236,145.575,48.63,96,100,14.12,JP,1624151768
sapulpa,35.9987,-96.1142,87.51,56,1,10.36,US,1624151768
sheridan,44.8333,-106.9173,84.45,25,100,3.0,US,1624151608
brae,60.3964,-1.353,49.91,79,95,7.05,GB,1624151769
siavonga,-16.5382,28.7088,64.44,57,63,6.35,ZM,1624151769
urdoma,61.7533,48.5442,51.21,70,6,3.47,RU,1624151769
motygino,58.1831,94.7592,68.7,61,27,6.04,RU,1624151770
diamantino,-14.4086,-56.4461,70.97,55,6,3.0,BR,1624151770
sao gabriel da cachoeira,-0.1303,-67.0892,72.79,98,98,2.13,BR,1624151770
bollnas,61.3482,16.3946,49.39,98,96,1.79,SE,1624151771
acarau,-2.8856,-40.12,76.96,84,15,11.92,BR,1624151771
totness,5.8833,-56.3167,78.44,86,7,12.15,SR,1624151771
mogadishu,2.0371,45.3438,76.98,83,100,18.05,SO,1624151771
banda aceh,5.5577,95.3222,80.96,81,100,9.78,ID,1624151772
panaba,21.2833,-88.2667,82.02,72,100,12.73,MX,1624151772
ostrovnoy,68.0531,39.5131,50.59,76,100,9.22,RU,1624151772
krasnoselkup,65.7,82.4667,43.25,81,100,9.15,RU,1624151773
blackwater,-23.5833,148.8833,62.67,40,0,9.37,AU,1624151773
kupang,-10.1667,123.5833,86.58,66,20,18.41,ID,1624151773
wolverhampton,52.5855,-2.123,54.81,89,100,1.01,GB,1624151663
muros,42.7762,-9.0603,58.23,91,100,22.7,ES,1624151774
halacho,20.4833,-90.0833,81.54,64,89,4.41,MX,1624151774
guhagar,17.4842,73.1929,78.85,85,92,11.9,IN,1624151774
ucluelet,48.9329,-125.5528,76.05,79,83,1.01,CA,1624151565
cedar city,37.6775,-113.0619,93.18,11,100,9.8,US,1624151590
kostomuksha,64.571,30.5767,56.64,83,100,1.79,RU,1624151775
nara,34.6851,135.8049,78.26,58,57,6.13,JP,1624151775
manjacaze,-24.7117,33.8828,61.07,96,72,1.68,MZ,1624151775
grants,35.1473,-107.8514,88.03,13,1,12.66,US,1624151775
kucevo,44.4775,21.67,58.89,97,31,5.41,RS,1624151776
isla mujeres,21.2311,-86.731,84.16,86,96,11.12,MX,1624151776
elko,41.0002,-115.5012,93.22,7,5,18.01,US,1624151776
nadym,65.5333,72.5167,52.14,63,37,13.47,RU,1624151777
muli,2.9167,73.5667,83.5,69,95,15.93,MV,1624151777
yangjiang,21.85,111.9667,91.94,69,100,6.06,CN,1624151715
thinadhoo,0.5333,72.9333,83.48,69,60,13.18,MV,1624151777
saint-pierre,-21.3393,55.4781,68.29,78,75,9.22,RE,1624151778
aniva,46.7144,142.5294,60.91,56,100,13.38,RU,1624151778
grand-lahou,5.1367,-5.0242,76.69,88,95,9.42,CI,1624151778
shimanovsk,52.0,127.7,69.57,59,100,6.73,RU,1624151779
palmer,42.1584,-72.3287,77.63,74,90,1.99,US,1624151779
okha,53.5739,142.9478,65.95,44,6,2.75,RU,1624151779
manzhouli,49.6,117.4333,55.33,89,100,10.4,CN,1624151780
waterloo,43.4668,-80.5164,69.31,84,0,6.11,CA,1624151644
zhigansk,66.7697,123.3711,72.59,45,97,1.5,RU,1624151780
castra-nova,44.1167,24.0167,63.68,92,100,3.65,RO,1624151780
yulara,-25.2406,130.9889,53.44,58,6,13.8,AU,1624151781
roald,62.5833,6.1333,55.17,87,90,12.66,NO,1624151781
lashio,22.9333,97.75,70.2,95,100,1.95,MM,1624151781
egvekinot,66.3167,-179.1667,49.98,53,66,3.83,RU,1624151782
lagos,6.5833,3.75,77.68,88,100,4.16,NG,1624151519
pishin,30.5803,66.9961,70.56,34,0,3.11,PK,1624151782
dwarka,22.2394,68.9678,83.93,72,100,18.03,IN,1624151783
carauari,-4.8828,-66.8958,72.88,98,73,2.33,BR,1624151502
yeppoon,-23.1333,150.7333,65.98,47,0,7.67,AU,1624151783
vallenar,-28.5708,-70.7581,57.36,50,0,3.38,CL,1624151783
kysyl-syr,63.8986,122.7617,83.17,44,25,2.73,RU,1624151784
vardo,70.3705,31.1107,44.19,85,98,3.0,NO,1624151784
maniitsoq,65.4167,-52.9,39.85,96,100,23.78,GL,1624151784
comodoro rivadavia,-45.8667,-67.5,44.46,61,0,11.5,AR,1624151785
sur,22.5667,59.5289,85.98,52,99,3.83,OM,1624151785
bamako,12.65,-8.0,75.61,94,20,4.61,ML,1624151782
bilibino,68.0546,166.4372,53.78,59,100,2.68,RU,1624151786
pitimbu,-7.4706,-34.8086,72.19,85,62,12.48,BR,1624151786
khoy,38.5504,44.9535,67.06,42,0,1.63,IR,1624151786
mastic beach,40.7668,-72.8521,70.32,90,90,7.0,US,1624151787
svetlaya,46.5389,138.3297,55.24,63,100,16.69,RU,1624151787
